"시설종류",대상시설명,소재지도로명주소,소재지지번주소,위도,경도,관리기관명,관할경찰서명,CCTV설치여부,CCTV설치대수,보호구역도로폭,데이터기준일자
"어린이집",가락어린이집,부산광역시 강서구 식만로 95 (식만동) 가락어린이집,부산광역시 강서구 식만동 791-1,35.20399906,128.9043819,부산광역시 강서구,부산강서,N,,8,2022-03-20
"초등학교",가락초등학교,부산광역시 강서구 호계로 41 (죽림동) 가락초등학교,부산광역시 강서구 죽림동 623-2,35.19634003,128.8952655,부산광역시 강서구,부산강서,N,,12,2022-03-20
"유치원",가락초등학교병설유치원,부산광역시 강서구 호계로 41 (죽림동) 가락초등학교병설유치원,부산광역시 강서구 죽림동 623-2,35.19634003,128.8952655,부산광역시 강서구,부산강서,N,,,2022-03-20
"어린이집",강변어린이집,부산광역시 강서구 공항로361번길 26 (대저2동) 강변어린이집,부산광역시 강서구 대저2동 5199-2,35.140703,128.9473100056,부산광역시 강서구,부산강서,N,,4,2022-03-20
"어린이집",강서어린이집,부산광역시 강서구 대저로63번길 31 (대저1동) 강서어린이집,부산광역시 강서구 대저1동 1549-1,35.21676068,128.9593383,부산광역시 강서구,부산강서,N,,6,2022-03-20
"어린이집",글로벌새싹어린이집,부산광역시 강서구 명지오션시티9로 19 (명지동) 글로벌새싹어린이집,부산광역시 강서구 명지동 3230-8,35.08866879,128.8989356,부산광역시 강서구,부산강서,Y,1,12,2022-03-20
"유치원",기린유치원,부산광역시 강서구 과학산단로334번다길 59 (지사동) 기린유치원,부산광역시 강서구 지사동 1189-8,35.14979832,128.8355835,부산광역시 강서구,부산강서,N,,8,2022-03-20
"어린이집",꿈바위어린이집,부산광역시 강서구 범방3로46번길 3 (범방동) 꿈바위어린이집,부산광역시 강서구 범방동 1901-1,35.14755365,128.8804493,부산광역시 강서구,부산강서,N,,12,2022-03-20
"유치원",남명유치원,부산광역시 강서구 명지오션시티11로 132 (명지동) 남명유치원,부산광역시 강서구 명지동 3243-2,35.08408661,128.9105908,부산광역시 강서구,부산강서,N,,,2022-03-20
"초등학교",남명초등학교,부산광역시 강서구 명지오션시티11로 132 (명지동) 남명초등학교,부산광역시 강서구 명지동 3243-2,35.08403561,128.9105908,부산광역시 강서구,부산강서,Y,2,16,2022-03-20
"초등학교",녹명초등학교,부산광역시 강서구 낙동남로 617 (녹산동) 녹명초등학교,부산광역시 강서구 녹산동 228-3,35.11489404,128.8863922,부산광역시 강서구,부산강서,Y,2,24,2022-03-20
"어린이집",녹산산단바른어린이집,부산광역시 강서구 녹산산단335로 11 (송정동) 녹산산단바른어린이집,부산광역시 강서구 송정동 1627-4,35.09010981,128.8539339,부산광역시 강서구,부산강서,N,,8,2022-03-20
"유치원",녹산유치원,부산광역시 강서구 과학산단2로20번길 55 (지사동) 녹산유치원,부산광역시 강서구 지사동 1184-2,35.15147548,128.8371219,부산광역시 강서구,부산강서,N,,,2022-03-20
"초등학교",녹산초등학교,부산광역시 강서구 과학산단2로20번길 55 (지사동) 녹산초등학교,부산광역시 강서구 지사동 1184-2,35.15147548,128.8371219,부산광역시 강서구,부산강서,Y,2,20,2022-03-20
"어린이집",대사라온어린이집,부산광역시 강서구 제도로 1166-11 (강동동) 대사라온어린이집,부산광역시 강서구 강동동 136-17,35.21397539,128.9348277,부산광역시 강서구,부산강서,N,,9,2022-03-20
"초등학교",대사초등학교,부산광역시 강서구 낙동북로73번길 29 (강동동) 대사초등학교,부산광역시 강서구 강동동 101-64,35.22041811,128.9385487,부산광역시 강서구,부산강서,Y,3,4~8,2022-03-20
"초등학교",대상초등학교,부산광역시 강서구 대저로 249 (대저1동) 대상초등학교,부산광역시 강서구 대저1동 2355-1,35.21418396,128.9802525,부산광역시 강서구,부산강서,Y,1,12,2022-03-20
"유치원",대저유치원,부산광역시 강서구 공항로767번나길 1 (대저2동) 대저유치원,부산광역시 강서구 대저2동 2515-14,35.17513227,128.9578468,부산광역시 강서구,부산강서,N,,4,2022-03-20
"초등학교",대저초등학교,부산광역시 강서구 대저로29번길 27 (대저1동) 대저초등학교,부산광역시 강서구 대저1동 1605,35.21610222,128.9553077,부산광역시 강서구,부산강서,N,,10,2022-03-20
"초등학교",덕두초등학교,부산광역시 강서구 공항로791번길 68 (대저2동) 덕두초등학교,부산광역시 강서구 대저2동 2489-1,35.17564815,128.9558698,부산광역시 강서구,부산강서,Y,1,10,2022-03-20
"유치원",라임유치원,부산광역시 강서구 영강길91번길 7 (명지동) 라임유치원,부산광역시 강서구 명지동 1401-1,35.10849495,128.9254002,부산광역시 강서구,부산강서,N,,8,2022-03-20
"유치원",명원유치원,부산광역시 강서구 명지국제6로 147 (명지동) 명원유치원,부산광역시 강서구 명지동 3405,35.09412838,128.9149102,부산광역시 강서구,부산강서,N,,,2022-03-20
"초등학교",명원초등학교,부산광역시 강서구 명지국제6로 147 (명지동) 명원초등학교,부산광역시 강서구 명지동 3405,35.09412838,128.9149102,부산광역시 강서구,부산강서,Y,24,8~12,2022-03-20
"유치원",명일유치원(단설),부산광역시 강서구 명지국제5로 170-5 (명지동) 명일유치원(단설),부산광역시 강서구 명지동 3477-2,35.10951726,128.922704,부산광역시 강서구,부산강서,N,,,2022-03-20
"초등학교",명일초등학교,부산광역시 강서구 명지국제5로 170-5 (명지동) 명일초등학교,부산광역시 강서구 명지동 3477-2,35.10951726,128.922704,부산광역시 강서구,부산강서,Y,4,8,2022-03-20
"유치원",명지국제유치원,부산광역시 강서구 명지국제7로 186 (명지동) 명지국제유치원,부산광역시 강서구 명지동 3428-2,35.09512861,128.9216749,부산광역시 강서구,부산강서,N,,,2022-03-20
"유치원",명지배화유치원,부산광역시 강서구 영강길 165 (명지동) 명지배화유치원,부산광역시 강서구 명지동 308,35.11183594,128.9237437,부산광역시 강서구,부산강서,N,,12,2022-03-20
"유치원",명지센텀유치원,부산광역시 강서구 명지오션시티9로 53 (명지동) 명지센텀유치원,부산광역시 강서구 명지동 3229-13,35.08864415,128.9026565,부산광역시 강서구,부산강서,N,,12,2022-03-20
"유치원",명지유치원(단설),부산광역시 강서구 명지국제6로 296 (명지동) 명지유치원,부산광역시 강서구 명지동 3385,35.10226077,128.9241172,부산광역시 강서구,부산강서,N,,,2022-03-20
"유치원",명지자연유치원,부산광역시 강서구 신호산단1로140번길 16-3 (신호동) 명지자연유치원,부산광역시 강서구 신호동 263-2,35.08047817,128.8788394,부산광역시 강서구,부산강서,N,,8,2022-03-20
"초등학교",명지초등학교,부산광역시 강서구 명지국제6로 296 (명지동) 명지초등학교,부산광역시 강서구 명지동 3385,35.10226077,128.9241172,부산광역시 강서구,부산강서,Y,4,25,2022-03-20
"초등학교",명호초등학교,부산광역시 강서구 명지오션시티2로 41 (명지동) 명호초등학교,부산광역시 강서구 명지동 3232-6,35.08522707,128.9004096,부산광역시 강서구,부산강서,Y,2,16,2022-03-20
"유치원",명호초등학교병설유치원,부산광역시 강서구 명지오션시티2로 41 (명지동) 명호초등학교병설유치원,부산광역시 강서구 명지동 3232-6,35.08522707,128.9004096,부산광역시 강서구,부산강서,N,,,2022-03-20
"어린이집",무궁화어린이집,부산광역시 강서구 명지국제7로 190 (명지동) 무궁화어린이집,부산광역시 강서구 명지동 3428-3,35.09510234,128.9219677,부산광역시 강서구,부산강서,N,,,2022-03-20
"초등학교",배영초등학교,부산광역시 강서구 공항로339번길 260 (대저2동) 배영초등학교,부산광역시 강서구 대저2동 4552,35.15020326,128.9453675,부산광역시 강서구,부산강서,N,,4~6,2022-03-20
"유치원",보광유치원,부산광역시 강서구 공항진입로 28 (대저2동) 보광유치원,부산광역시 강서구 대저2동 1845-1,35.18181108,128.9561575,부산광역시 강서구,부산강서,N,,35,2022-03-20
"특수학교",부산한솔학교,부산광역시 강서구 명지오션시티2로 86 (명지동) 부산한솔학교,부산광역시 강서구 명지동 3235-2,35.0813777,128.8986257,부산광역시 강서구,부산강서,Y,1,16,2022-03-20
"특수학교",부산혜원학교,부산광역시 강서구 공항로 1319 (대저1동) 부산혜원학교,부산광역시 강서구 대저1동 395-25,35.21534404,128.9886148,부산광역시 강서구,부산강서,N,,16,2022-03-20
"유치원",송정유치원,부산광역시 강서구 신호산단4로 10 (신호동) 송정유치원,부산광역시 강서구 신호동 300-2,35.08533995,128.8735974,부산광역시 강서구,부산강서,N,,,2022-03-20
"초등학교",송정초등학교,부산광역시 강서구 신호산단4로 10 (신호동) 송정초등학교,부산광역시 강서구 신호동 300-2,35.08536457,128.8735012,부산광역시 강서구,부산강서,Y,6,16,2022-03-20
"유치원",신명유치원,부산광역시 강서구 명지국제7로 178 (명지동) 신명유치원,부산광역시 강서구 명지동 3427,35.09523277,128.9207155,부산광역시 강서구,부산강서,N,,,2022-03-20
"초등학교",신명초등학교,부산광역시 강서구 명지국제7로 178 (명지동) 신명초등학교,부산광역시 강서구 명지동 3427,35.09523277,128.9207155,부산광역시 강서구,부산강서,N,,,2022-03-20
"초등학교",신호초등학교,부산광역시 강서구 신호산단2로75번길 12 (신호동) 신호초등학교,부산광역시 강서구 신호동 254,35.08196953,128.8785862,부산광역시 강서구,부산강서,N,,16,2022-03-20
"유치원",신호초등학교병설유치원,부산광역시 강서구 신호산단2로75번길 12 (신호동) 신호초등학교 병설유치원,부산광역시 강서구 신호동 254,35.08196953,128.8785862,부산광역시 강서구,부산강서,N,,,2022-03-20
"어린이집",에코파랑새어린이집,부산광역시 강서구 범방3로46번길 11 (범방동) 에코파랑새 어린이집,부산광역시 강서구 범방동 1901-5,35.147375,128.881323,부산광역시 강서구,부산강서,N,,,2022-03-20
"유치원",오션유치원,부산광역시 강서구 명지오션시티6로 72 (명지동) 오션유치원,부산광역시 강서구 명지동 3241-3,35.08029669,128.9070666,부산광역시 강서구,부산강서,N,,,2022-03-20
"초등학교",오션초등학교,부산광역시 강서구 명지오션시티6로 72 (명지동) 오션초등학교,부산광역시 강서구 명지동 3241-3,35.08029669,128.9070666,부산광역시 강서구,부산강서,Y,2,8,2022-03-20
"어린이집",제일어린이집,부산광역시 강서구 송정길43번길 16 (송정동) 제일어린이집,부산광역시 강서구 송정동 1191-27,35.10041581,128.8419611,부산광역시 강서구,부산강서,N,,16,2022-03-20
"초등학교",천가초등학교,부산광역시 강서구 동선길 135 (성북동) 천가초등학교,부산광역시 강서구 성북동 344,35.05234602,128.8312677,부산광역시 강서구,부산강서,N,,4~6,2022-03-20
"유치원",천가초등학교병설유치원,부산광역시 강서구 동선길 135 (성북동) 천가초등학교병설유치원,부산광역시 강서구 성북동 344,35.05234602,128.8312677,부산광역시 강서구,부산강서,N,,,2022-03-20
"어린이집",파랑새어린이집,부산광역시 강서구 낙동남로 458-2 (녹산동) 파랑새어린이집,부산광역시 강서구 녹산동 846,35.11210702,128.8701154,부산광역시 강서구,부산강서,Y,2,30,2022-03-20
"어린이집",현대어린이집,부산광역시 강서구 호계로145번길 8 (죽동동) 현대어린이집,부산광역시 강서구 죽동동 342-3,35.20464197,128.8911841,부산광역시 강서구,부산강서,Y,2,16,2022-03-20
"유치원",현대유치원,부산광역시 강서구 호계로145번길 8 (죽동동) 현대유치원,부산광역시 강서구 죽동동 342-3,35.20464197,128.8911841,부산광역시 강서구,부산강서,N,,,2022-03-20
"유치원",명지꿈자람유치원,부산광역시 강서구 명지국제8로 199(명지동) 명지꿈자람유치원,부산광역시 강서구 명지동 1760-4,35.0995018864,128.9150379324,부산광역시 강서구,부산강서,N,,24,2022-03-20
"유치원",명지가온유치원,부산광역시 강서구 명지오션시티6로 6(명지동) 명지가온유치원,부산광역시 강서구 명지동 3242-2,35.0802536286,128.9084056758,부산광역시 강서구,부산강서,Y,2,16,2022-03-20
