"시설종류",대상시설명,소재지도로명주소,소재지지번주소,위도,경도,관리기관명,관할경찰서명,CCTV설치여부,CCTV설치대수,보호구역도로폭,데이터기준일자
"어린이집",BR스쿨어린이집,부산광역시 동래구 쇠미로27번길 10 (사직동) BR스쿨어린이집,부산광역시 동래구 사직동 981-7,35.19672651,129.0533438,부산광역시 동래구,동래경찰서,Y,1,22,2022-05-13
"유치원",SK뜰에유치원,"부산광역시 동래구 충렬대로 487 (안락동, 안락 SK아파트) SK뜰에유치원",부산광역시 동래구 안락동 472-57,35.19481646,129.1118476,부산광역시 동래구,동래경찰서,N,,12,2022-05-13
"초등학교",교동초등학교,부산광역시 동래구 시실로 73-13 (명륜동) 교동초등학교,부산광역시 동래구 명륜동 105-1,35.21545808,129.0921765,부산광역시 동래구,동래경찰서,Y,1,12,2022-05-13
"유치원",교동초등학교병설유치원,부산광역시 동래구 시실로 73-13 (명륜동) 교동초등학교병설유치원,부산광역시 동래구 명륜동 105-1,35.21545808,129.0921765,부산광역시 동래구,동래경찰서,N,,12,2022-05-13
"초등학교",금강초등학교,부산광역시 동래구 사직북로28번길 125 (온천동) 금강초등학교,부산광역시 동래구 온천동 1263,35.2031347,129.0641112,부산광역시 동래구,동래경찰서,Y,5,31,2022-05-13
"초등학교",낙민초등학교,부산광역시 동래구 충렬대로272번길 34 (낙민동) 낙민초등학교,부산광역시 동래구 낙민동 303,35.19942578,129.088343,부산광역시 동래구,동래경찰서,Y,5,18,2022-05-13
"유치원",낙민초등학교병설유치원,부산광역시 동래구 충렬대로272번길 34 (낙민동) 낙민초등학교병설유치원,부산광역시 동래구 낙민동 303,35.19942578,129.088343,부산광역시 동래구,동래경찰서,N,,18,2022-05-13
"초등학교",내산초등학교,부산광역시 동래구 중앙대로1335번길 38 (온천동) 내산초등학교,부산광역시 동래구 온천동 700-1,35.20735793,129.0766352,부산광역시 동래구,동래경찰서,Y,4,9,2022-05-13
"초등학교",내성초등학교,부산광역시 동래구 동래로 173 (복천동) 내성초등학교,부산광역시 동래구 복천동 72,35.20461583,129.0897914,부산광역시 동래구,동래경찰서,Y,1,12,2022-05-13
"유치원",내성초등학교병설유치원,부산광역시 동래구 동래로 173 (복천동) 내성초등학교병설유치원,부산광역시 동래구 복천동 72,35.20461583,129.0897374,부산광역시 동래구,동래경찰서,N,,12,2022-05-13
"유치원",느티나무유치원,부산광역시 동래구 온천천로453번길 6 (안락동) 느티나무유치원,부산광역시 동래구 안락동 221-7,35.19155774,129.1028193,부산광역시 동래구,동래경찰서,Y,3,9,2022-05-13
"초등학교",달북초등학교,부산광역시 동래구 쇠미로 131 (온천동) 달북초등학교,부산광역시 동래구 온천동 1608-2,35.20357435,129.0599975,부산광역시 동래구,동래경찰서,Y,2,20,2022-05-13
"유치원",동래유치원,부산광역시 동래구 동래로152번가길 21-9 (칠산동) 동래유치원,부산광역시 동래구 칠산동 246,35.20316736,129.088301,부산광역시 동래구,동래경찰서,Y,1,8,2022-05-13
"유치원",럭키동래유치원,부산광역시 동래구 중앙대로1367번길 85 (온천동) 럭키동래유치원,부산광역시 동래구 온천동 707-4,35.2100912,129.0734827,부산광역시 동래구,동래경찰서,N,,20,2022-05-13
"초등학교",명동초등학교,부산광역시 동래구 명장로63번길 60-5 (명장동) 명동초등학교,부산광역시 동래구 명장동 433-2,35.20759141,129.1062471,부산광역시 동래구,동래경찰서,N,,9,2022-05-13
"유치원",명륜자연유치원,부산광역시 동래구 명륜로250번길 43 (명륜동) 명륜자연유치원,부산광역시 동래구 명륜동 32-71,35.21515222,129.0870207,부산광역시 동래구,동래경찰서,N,,5,2022-05-13
"초등학교",명륜초등학교,부산광역시 동래구 동래로 91 (명륜동) 명륜초등학교,부산광역시 동래구 명륜동 228,35.20803548,129.0832699795,부산광역시 동래구,동래경찰서,Y,3,20,2022-05-13
"초등학교",명서초등학교,부산광역시 동래구 명서로 121 (명장동) 명서초등학교,부산광역시 동래구 명장동 502-1,35.21207663,129.1008778,부산광역시 동래구,동래경찰서,N,,18,2022-05-13
"초등학교",명장초등학교,부산광역시 동래구 복천로 121 (명장동) 명장초등학교,부산광역시 동래구 명장동 273-1,35.20819025,129.0965594,부산광역시 동래구,동래경찰서,Y,1,13,2022-05-13
"초등학교",미남초등학교,부산광역시 동래구 충렬대로100번길 83 (온천동) 미남초등학교,부산광역시 동래구 온천동 1460-1,35.20368445,129.0728408,부산광역시 동래구,동래경찰서,Y,3,9,2022-05-13
"유치원",법륜유치원,부산광역시 동래구 동래로 160 (칠산동) 법륜유치원,부산광역시 동래구 칠산동 239-10,35.20358527,129.0879172,부산광역시 동래구,동래경찰서,Y,2,15,2022-05-13
"어린이집",부산경찰청직장어린이집,부산광역시 동래구 쇠미로17번길 8 (사직동) 부산경찰청어린이집,부산광역시 동래구 사직동 981-62,35.19585803,129.0534731,부산광역시 동래구,동래경찰서,N,,16,2022-05-13
"특수학교",부산맹학교,부산광역시 동래구 충렬사로67번길 56 (명장동) 부산맹학교,부산광역시 동래구 명장동 263-5,35.20686112,129.0970552,부산광역시 동래구,동래경찰서,N,,10,2022-05-13
"유치원",쁘띠쁘아유치원,부산광역시 동래구 쇠미로129번길 102-13 (온천동) 쁘띠쁘아유치원,부산광역시 동래구 온천동 1657-7,35.20713307,129.0577378,부산광역시 동래구,동래경찰서,N,,6,2022-05-13
"유치원",사직유치원,부산광역시 동래구 사직북로34번길 62 (사직동) 사직유치원,부산광역시 동래구 사직동 54-8,35.2005247,129.0627414,부산광역시 동래구,동래경찰서,Y,1,10,2022-05-13
"유치원",사직자연유치원,"부산광역시 동래구 사직로 80 (사직동, 사직 쌍용 예가) 사직자연유치원",부산광역시 동래구 사직동 1017,35.19662799,129.057506,부산광역시 동래구,동래경찰서,Y,2,16,2022-05-13
"초등학교",사직초등학교,부산광역시 동래구 쇠미로81번길 7 (사직동) 사직초등학교,부산광역시 동래구 사직동 592,35.20088135,129.0541694,부산광역시 동래구,동래경찰서,Y,2,23,2022-05-13
"유치원",세명유치원,부산광역시 동래구 안락로101번길 42 (명장동) 세명유치원,부산광역시 동래구 명장동 612-5,35.20129139,129.1082182,부산광역시 동래구,동래경찰서,N,,10,2022-05-13
"유치원",수안유치원,부산광역시 동래구 충렬대로237번길 57 (수안동) 수안유치원,부산광역시 동래구 수안동 476-7,35.20376806,129.0847206,부산광역시 동래구,동래경찰서,Y,1,12,2022-05-13
"초등학교",수안초등학교,부산광역시 동래구 온천천로 215 (수안동) 수안초등학교,부산광역시 동래구 수안동 7-1,35.20047925,129.0804245,부산광역시 동래구,동래경찰서,Y,3,12,2022-05-13
"어린이집",스펀지어린이집,부산광역시 동래구 충렬대로410번길 41 (안락동) 스펀지어린이집,부산광역시 동래구 안락동 628-86,35.19467085,129.1025964,부산광역시 동래구,동래경찰서,Y,2,15,2022-05-13
"유치원",스펀지유치원,"부산광역시 동래구 안남로 36 (낙민동, 중앙하이츠2단지) 스펀지유치원",부산광역시 동래구 낙민동 90-6,35.1942212,129.0957756,부산광역시 동래구,동래경찰서,N,,15,2022-05-13
"어린이집",승원어린이집,부산광역시 동래구 아시아드대로108번길 75 (사직동) 승원어린이집,부산광역시 동래구 사직동 131-10,35.19514705,129.0705599,부산광역시 동래구,동래경찰서,N,,6,2022-05-13
"유치원",승원유치원,부산광역시 동래구 아시아드대로108번길 85 (사직동) 승원유치원,부산광역시 동래구 사직동 131-5,35.19526435,129.071029,부산광역시 동래구,동래경찰서,Y,1,6,2022-05-13
"유치원",아이숲유치원,부산광역시 동래구 옥봉로14번길 25 (명장동) 아이숲유치원,부산광역시 동래구 명장동 477-1,35.20988242,129.106808,부산광역시 동래구,동래경찰서,N,,8,2022-05-13
"초등학교",안남초등학교,부산광역시 동래구 연안로 46 (안락동) 안남초등학교,부산광역시 동래구 안락동 175-16,35.19170351,129.1077338,부산광역시 동래구,동래경찰서,Y,2,28,2022-05-13
"초등학교",안락초등학교,부산광역시 동래구 명안로53번길 22 (명장동) 안락초등학교,부산광역시 동래구 명장동 104-5,35.20200573,129.1030796,부산광역시 동래구,동래경찰서,Y,5,10,2022-05-13
"유치원",안락초등학교병설유치원,부산광역시 동래구 명안로53번길 22 (명장동) 안락초등학교병설유치원,부산광역시 동래구 명장동 104-5,35.20200573,129.1030796,부산광역시 동래구,동래경찰서,N,,10,2022-05-13
"초등학교",안민초등학교,부산광역시 동래구 온천천로381번길 19 (낙민동) 안민초등학교,부산광역시 동래구 낙민동 85-10,35.19402913,129.0937899,부산광역시 동래구,동래경찰서,Y,6,28,2022-05-13
"유치원",안성자연유치원,부산광역시 동래구 명안로77번길 35 (명장동) 안성자연유치원,부산광역시 동래구 명장동 64-4,35.20377358,129.1023286,부산광역시 동래구,동래경찰서,N,,8,2022-05-13
"초등학교",안진초등학교,부산광역시 동래구 안남로 63 (안락동) 안진초등학교,부산광역시 동래구 안락동 1252,35.19474507,129.0991293,부산광역시 동래구,동래경찰서,Y,3,18,2022-05-13
"어린이집",양덕어린이집,부산광역시 동래구 여고로 46 (사직동) 양덕어린이집,부산광역시 동래구 사직동 115-3,35.1955337,129.0689369,부산광역시 동래구,동래경찰서,Y,2,24,2022-05-13
"유치원",여고유치원,부산광역시 동래구 여고북로60번길 18 (사직동) 여고유치원,부산광역시 동래구 사직동 388,35.19981904,129.0678252,부산광역시 동래구,동래경찰서,Y,3,19,2022-05-13
"초등학교",여고초등학교,부산광역시 동래구 여고로63번가길 12 (사직동) 여고초등학교,부산광역시 동래구 사직동 126-1,35.1979099,129.0689614,부산광역시 동래구,동래경찰서,Y,5,20,2022-05-13
"어린이집",예능어린이집,부산광역시 동래구 동래로 139 (복천동) 예능어린이집,부산광역시 동래구 복천동 193-1,35.20518712,129.0867018,부산광역시 동래구,동래경찰서,Y,1,16,2022-05-13
"유치원",예람유치원,부산광역시 동래구 충렬대로202번가길 24 (수안동) 예람유치원,부산광역시 동래구 수안동 2-3,35.20122548,129.0826542,부산광역시 동래구,동래경찰서,N,,8,2022-05-13
"초등학교",예원초등학교,부산광역시 동래구 사직로 78 (사직동) 예원초등학교,부산광역시 동래구 사직동 1018,35.19588224,129.0573916,부산광역시 동래구,동래경찰서,Y,1,33,2022-05-13
"유치원",예인유치원,"부산광역시 동래구 쇠미로 37 (사직동, 삼정그린코아) 예인유치원",부산광역시 동래구 사직동 981-100,35.19738003,129.0531522,부산광역시 동래구,동래경찰서,Y,2,20,2022-05-13
"어린이집",예지어린이집,부산광역시 동래구 충렬대로100번길 117 (온천동) 10동 예지어린이집,부산광역시 동래구 온천동 1468-6,35.20205723,129.0730418,부산광역시 동래구,동래경찰서,N,,10,2022-05-13
"초등학교",온천초등학교,부산광역시 동래구 충렬대로107번길 124 (온천동) 온천초등학교,부산광역시 동래구 온천동 397-4,35.21255477,129.0736773,부산광역시 동래구,동래경찰서,Y,3,20,2022-05-13
"유치원",은성유치원,부산광역시 동래구 여고북로123번길 65-3 (온천동) 은성유치원,부산광역시 동래구 온천동 1449-9,35.20406075,129.0705181,부산광역시 동래구,동래경찰서,Y,1,8,2022-05-13
"어린이집",주영어린이집,부산광역시 동래구 시실로211번길 51 (명장동) 주영어린이집,부산광역시 동래구 명장동 302-1,35.20850731,129.0998218,부산광역시 동래구,동래경찰서,N,,10,2022-05-13
"초등학교",충렬초등학교,부산광역시 동래구 안락로125번길 22 (안락동) 충렬초등학교,부산광역시 동래구 안락동 467-1,35.20041739,129.1117016,부산광역시 동래구,동래경찰서,Y,7,15,2022-05-13
"어린이집",코끼리자연어린이집,부산광역시 동래구 칠산로 29 (칠산동) 코끼리자연어린이집,부산광역시 동래구 칠산동 37,35.20720049,129.0937239,부산광역시 동래구,동래경찰서,N,,10,2022-05-13
"유치원",한누리유치원,부산광역시 동래구 쇠미로71번길 47 (사직동) 한누리유치원,부산광역시 동래구 사직동 산598-21,35.20037943,129.0520375,부산광역시 동래구,동래경찰서,N,,4,2022-05-13
"어린이집",한독온천어린이집,부산광역시 동래구 석사북로95번길 72 (온천동) 한독온천어린이집,부산광역시 동래구 온천동 1218-7,35.20743972,129.0631326,부산광역시 동래구,동래경찰서,Y,1,8,2022-05-13
"어린이집",한마음어린이집,부산광역시 동래구 명안로78번길 9 (명장동) 한마음어린이집,부산광역시 동래구 명장동 136-13,35.20371241,129.1048531,부산광역시 동래구,동래경찰서,N,,10,2022-05-13
"유치원",해솔유치원,"부산광역시 동래구 명륜로236번길 9 (명륜동, 명륜동SKVIEW) 해솔유치원",부산광역시 동래구 명륜동 752,35.21425939,129.084954,부산광역시 동래구,동래경찰서,Y,2,6,2022-05-13
"어린이집",현대어린이집,부산광역시 동래구 동래로 98 (명륜동) 현대어린이집,부산광역시 동래구 명륜동 310-1,35.20736937,129.0831708,부산광역시 동래구,동래경찰서,N,,20,2022-05-13
"유치원",혜화병설유치원,부산광역시 동래구 명장로99번길 27 (명장동) 혜화병설유치원,부산광역시 동래구 명장동 산12,35.20140513,129.1130289,부산광역시 동래구,동래경찰서,N,,6,2022-05-13
"어린이집",혜화어린이집,부산광역시 동래구 명장로99번길 25-1 (명장동) 혜화어린이집,부산광역시 동래구 명장동 산12,35.20175211,129.1134549,부산광역시 동래구,동래경찰서,N,,6,2022-05-13
"초등학교",혜화초등학교,부산광역시 동래구 명장로99번길 25 (명장동) 혜화초등학교,부산광역시 동래구 명장동 산12,35.20226047,129.1132938,부산광역시 동래구,동래경찰서,N,,6,2022-05-13
"유치원",홍익유치원,부산광역시 동래구 명안로25번길 9 (안락동) 홍익유치원,부산광역시 동래구 안락동 447-21,35.19871321,129.1038419,부산광역시 동래구,동래경찰서,N,,6,2022-05-13
"유치원",민들레유치원,부산광역시 동래구 차밭골로49번길 41 (온천동) 민들레유치원,부산광역시 동래구 온천동 345-15,35.21597023,129.075666,부산광역시 동래구,동래경찰서,Y,0,7,2022-05-13
"초등학교",온샘초등학교,부산 동래구 충렬대로75번길 25 (온천동) 온샘초등학교,부산광역시 동래구 온천동 968-3,35.2095209367,129.0687105618,부산광역시 동래구,동래경찰서,Y,4,20,2022-05-13
"유치원",온샘초등학교병설유치원,부산 동래구 충렬대로75번길 25 (온천동) 온샘초등학교병설유치원,부산광역시 동래구 온천동 968-3,35.2095209367,129.0687105618,부산광역시 동래구,동래경찰서,N,,20,2022-05-13
